{
  "dataset_id": "transit-stops",
  "name": "GRT Stop Feed with Ridership",
  "owner_dept": "Transit",
  "description": "Grand River Transit stop locations with daily ridership counts",
  "access_tier": "open",
  "spatial_key": "stop_id",
  "last_updated": "2024-12-13T23:00:00Z",
  "quality_score": 0.96,
  "fields": ["stop_id", "civic_address", "lat", "lng", "daily_ridership", "routes_serving", "ward"],
  "records": [
    {"stop_id": "ST001", "civic_address": "100 Queen St S", "lat": 43.4487, "lng": -80.4932, "daily_ridership": 1245, "routes_serving": ["7", "12", "33"], "ward": 1},
    {"stop_id": "ST002", "civic_address": "150 King St W", "lat": 43.4512, "lng": -80.4985, "daily_ridership": 2180, "routes_serving": ["1", "7", "52"], "ward": 1},
    {"stop_id": "ST003", "civic_address": "75 Weber St N", "lat": 43.4589, "lng": -80.4856, "daily_ridership": 1890, "routes_serving": ["4", "16", "56"], "ward": 2},
    {"stop_id": "ST004", "civic_address": "300 Frederick St", "lat": 43.4598, "lng": -80.4801, "daily_ridership": 1560, "routes_serving": ["5", "16"], "ward": 2},
    {"stop_id": "ST005", "civic_address": "500 Glasgow St", "lat": 43.4623, "lng": -80.4756, "daily_ridership": 890, "routes_serving": ["12", "27"], "ward": 3},
    {"stop_id": "ST006", "civic_address": "600 Wilson Ave", "lat": 43.4478, "lng": -80.4656, "daily_ridership": 1670, "routes_serving": ["9", "21", "54"], "ward": 4},
    {"stop_id": "ST007", "civic_address": "85 Lawrence Ave", "lat": 43.4356, "lng": -80.4723, "daily_ridership": 1340, "routes_serving": ["8", "34"], "ward": 5},
    {"stop_id": "ST008", "civic_address": "1200 River Rd E", "lat": 43.4212, "lng": -80.4567, "daily_ridership": 2100, "routes_serving": ["2", "16", "56"], "ward": 6},
    {"stop_id": "ST009", "civic_address": "1500 King St E", "lat": 43.4189, "lng": -80.4489, "daily_ridership": 2450, "routes_serving": ["1", "7", "52"], "ward": 6},
    {"stop_id": "ST010", "civic_address": "95 Huron Rd", "lat": 43.4323, "lng": -80.4634, "daily_ridership": 720, "routes_serving": ["11", "31"], "ward": 7},
    {"stop_id": "ST011", "civic_address": "350 Pioneer Dr", "lat": 43.4289, "lng": -80.4589, "daily_ridership": 980, "routes_serving": ["13", "48"], "ward": 8},
    {"stop_id": "ST012", "civic_address": "75 Margaret Ave", "lat": 43.4434, "lng": -80.4723, "daily_ridership": 1920, "routes_serving": ["6", "22", "57"], "ward": 9},
    {"stop_id": "ST013", "civic_address": "300 Courtland Ave E", "lat": 43.4456, "lng": -80.4656, "daily_ridership": 1680, "routes_serving": ["17", "25"], "ward": 9},
    {"stop_id": "ST014", "civic_address": "450 Wellington St N", "lat": 43.4498, "lng": -80.4789, "daily_ridership": 1450, "routes_serving": ["3", "19"], "ward": 9}
  ]
}
